
		# NMEA_data_NEO-7M 
 
$GPGLL,1301.37417,N,07735.14942,E,101116.00,A,D*63
$GPRMC,101117.00,A,1301.37418,N,07735.14943,E,0.248,,101024,,,D*7D
$GPVTG,,T,,M,0.248,N,0.459,K,D*20
$GPGGA,101117.00,1301.37418,N,07735.14943,E,2,04,2.74,956.0,M,-86.2,M,,0000*71
$GPGSA,A,3,03,07,09,02,,,,,,,,,3.32,2.74,1.87*00
$GPGSV,3,1,10,02,09,198,21,03,64,237,28,04,44,354,21,07,19,285,25*7D
$GPGSV,3,2,10,08,33,154,14,09,20,328,27,16,48,035,,27,35,113,22*7E
$GPGSV,3,3,10,31,11,051,21,40,60,242,28*71
$GPGLL,1301.37418,N,07735.14943,E,101117.00,A,D*6C
$GPRMC,101118.00,A,1301.37418,N,07735.14940,E,0.057,,101024,,,D*7D
$GPVTG,,T,,M,0.057,N,0.106,K,D*23
$GPGGA,101118.00,1301.37418,N,07735.14940,E,2,04,2.74,956.0,M,-86.2,M,,0000*7D
$GPGSA,A,3,03,07,09,02,,,,,,,,,3.32,2.74,1.87*00
$GPGSV,3,1,10,02,09,198,18,03,64,237,31,04,44,354,19,07,19,285,30*70
$GPGSV,3,2,10,08,33,154,14,09,20,328,30,16,48,035,,27,35,113,17*7E
$GPGSV,3,3,10,31,11,051,18,40,60,242,31*73
$GPGLL,1301.37418,N,07735.14940,E,101118.00,A,D*60
$GPRMC,101119.00,A,1301.37422,N,07735.14938,E,0.244,,101024,,,D*7A
$GPVTG,,T,,M,0.244,N,0.452,K,D*27
$GPGGA,101119.00,1301.37422,N,07735.14938,E,2,04,2.74,956.1,M,-86.2,M,,0000*7B
$GPGSA,A,3,03,07,09,02,,,,,,,,,3.32,2.74,1.87*00
$GPGSV,3,1,10,02,09,198,16,03,64,237,31,04,44,354,16,07,19,285,30*71
$GPGSV,3,2,10,08,33,154,15,09,20,328,27,16,48,035,,27,35,113,*7F
$GPGSV,3,3,10,31,11,051,,40,60,242,31*7A
$GPGLL,1301.37422,N,07735.14938,E,101119.00,A,D*67
$GPRMC,101120.00,A,1301.37409,N,07735.14955,E,0.093,,101024,,,D*7A
$GPVTG,,T,,M,0.093,N,0.172,K,D*28
$GPGGA,101120.00,1301.37409,N,07735.14955,E,2,04,2.74,955.7,M,-86.2,M,,0000*76
$GPGSA,A,3,03,07,09,02,,,,,,,,,3.32,2.74,1.87*00
$GPGSV,3,1,10,02,09,198,28,03,64,237,44,04,44,354,21,07,19,285,42*7F
$GPGSV,3,2,10,08,33,154,10,09,20,328,40,16,48,035,,27,35,113,*7B
$GPGSV,3,3,10,31,11,051,26,40,60,242,43*7B
$GPGLL,1301.37409,N,07735.14955,E,101120.00,A,D*6F
$GPRMC,101121.00,A,1301.37397,N,07735.14973,E,0.176,,101024,,,D*75
$GPVTG,,T,,M,0.176,N,0.326,K,D*21
$GPGGA,101121.00,1301.37397,N,07735.14973,E,2,04,2.74,955.2,M,-86.2,M,,0000*76
$GPGSA,A,3,03,07,09,02,,,,,,,,,3.32,2.74,1.87*00
$GPGSV,3,1,10,02,09,198,28,03,64,237,42,04,44,354,23,07,19,285,40*79
$GPGSV,3,2,10,08,33,154,10,09,20,328,38,16,48,035,,27,35,113,*74
$GPGSV,3,3,10,31,11,051,25,40,60,242,42*79
$GPGLL,1301.37397,N,07735.14973,E,101121.00,A,D*6A
$GPRMC,101122.00,A,1301.37385,N,07735.14984,E,0.072,,101024,,,D*78
$GPVTG,,T,,M,0.072,N,0.134,K,D*25
$GPGGA,101122.00,1301.37385,N,07735.14984,E,2,04,2.74,954.9,M,-86.2,M,,0000*74
$GPGSA,A,3,03,07,09,02,,,,,,,,,3.32,2.74,1.87*00
$GPGSV,3,1,10,02,09,198,27,03,64,237,39,04,44,354,24,07,19,285,36*7C
$GPGSV,3,2,10,08,33,154,10,09,20,328,35,16,48,035,23,27,35,113,*78
$GPGSV,3,3,10,31,11,051,22,40,60,242,37*7C
$GPGLL,1301.37385,N,07735.14984,E,101122.00,A,D*62
$GPRMC,101123.00,A,1301.37375,N,07735.14990,E,0.491,,101024,,,D*7A
$GPVTG,,T,,M,0.491,N,0.910,K,D*22
$GPGGA,101123.00,1301.37375,N,07735.14990,E,2,04,2.74,954.6,M,-86.2,M,,0000*70
$GPGSA,A,3,03,07,09,02,,,,,,,,,3.32,2.74,1.87*00
$GPGSV,3,1,10,02,09,198,24,03,64,237,37,04,44,354,20,07,19,285,38*7B
$GPGSV,3,2,10,08,33,154,08,09,20,328,35,16,48,035,,27,35,113,*70
$GPGSV,3,3,10,31,11,051,20,40,60,242,37*7E
$GPGLL,1301.37375,N,07735.14990,E,101123.00,A,D*69
$GPRMC,101124.00,V,,,,,,,101024,,,N*7C
$GPVTG,,,,,,,,,N*30
$GPGGA,101124.00,,,,,0,03,2.98,,,,,,0000*51
$GPGSA,A,1,03,07,09,,,,,,,,,,3.14,2.98,1.00*09
$GPGSV,3,1,10,02,09,198,27,03,64,237,44,04,44,354,22,07,19,285,42*73
$GPGSV,3,2,10,08,33,154,09,09,20,328,39,16,48,035,,27,35,113,*7D
$GPGSV,3,3,10,31,11,051,21,40,60,242,42*7D
$GPGLL,,,,,101124.00,V,N*4D
$GPRMC,101125.00,V,,,,,,,101024,,,N*7D
$GPVTG,,,,,,,,,N*30
$GPGGA,101125.00,,,,,0,03,2.98,,,,,,0000*50
$GPGSA,A,1,03,07,09,,,,,,,,,,3.14,2.98,1.00*09
$GPGSV,3,1,10,02,09,198,24,03,64,237,44,04,44,354,23,07,19,285,42*71
$GPGSV,3,2,10,08,33,154,09,09,20,328,39,16,48,035,,27,35,113,*7D
$GPGSV,3,3,10,31,11,051,22,40,60,242,42*7E
$GPGLL,,,,,101125.00,V,N*4C
$GPRMC,101126.00,V,,,,,,,101024,,,N*7E
$GPVTG,,,,,,,,,N*30
$GPGGA,101126.00,,,,,0,03,2.98,,,,,,0000*53
$GPGSA,A,1,03,07,09,,,,,,,,,,3.14,2.98,1.00*09
$GPGSV,3,1,11,02,09,198,,03,64,237,43,04,44,354,23,07,19,285,42*71
$GPGSV,3,2,11,08,33,154,17,09,20,328,39,16,48,035,,21,,,26*44
$GPGSV,3,3,11,27,35,113,,31,11,051,23,40,60,242,42*4E
$GPGLL,,,,,101126.00,V,N*4F
$GPRMC,101127.00,V,,,,,,,101024,,,N*7F
$GPVTG,,,,,,,,,N*30
$GPGGA,101127.00,,,,,0,03,2.98,,,,,,0000*52
$GPGSA,A,1,03,07,09,,,,,,,,,,3.14,2.98,1.00*09
$GPGSV,3,1,11,02,09,198,,03,64,237,33,04,44,354,20,07,19,285,30*70
$GPGSV,3,2,11,08,33,154,17,09,20,328,30,16,48,035,,21,,,22*49
$GPGSV,3,3,11,27,35,113,,31,11,051,20,40,60,242,33*4B
$GPGLL,,,,,101127.00,V,N*4E
$GPRMC,101128.00,A,1301.37379,N,07735.15005,E,0.140,,101024,,,D*70
$GPVTG,,T,,M,0.140,N,0.258,K,D*2C
$GPGGA,101128.00,1301.37379,N,07735.15005,E,2,04,2.74,970.9,M,-86.2,M,,0000*7A
$GPGSA,A,3,03,07,09,02,,,,,,,,,3.32,2.74,1.87*00
$GPGSV,3,1,10,02,09,198,30,03,64,237,45,04,44,354,20,07,19,285,43*77
$GPGSV,3,2,10,08,33,154,17,09,20,328,42,16,48,035,,27,35,113,*7E
$GPGSV,3,3,10,31,11,051,18,40,60,242,44*71
$GPGLL,1301.37379,N,07735.15005,E,101128.00,A,D*6A
$GPRMC,101129.00,A,1301.37387,N,07735.14997,E,0.062,,101024,,,D*72
$GPVTG,,T,,M,0.062,N,0.115,K,D*27
$GPGGA,101129.00,1301.37387,N,07735.14997,E,2,04,2.74,970.9,M,-86.2,M,,0000*79
$GPGSA,A,3,03,07,09,02,,,,,,,,,3.32,2.74,1.87*00
$GPGSV,3,1,10,02,09,198,31,03,64,237,45,04,44,354,22,07,19,285,43*74
$GPGSV,3,2,10,08,33,154,17,09,20,328,41,16,48,035,,27,35,113,*7D
$GPGSV,3,3,10,31,11,051,20,40,60,242,44*7A
$GPGLL,1301.37387,N,07735.14997,E,101129.00,A,D*69
$GPRMC,101130.00,A,1301.37399,N,07735.14983,E,0.010,,101024,,,D*75
$GPVTG,,T,,M,0.010,N,0.019,K,D*2F
$GPGGA,101130.00,1301.37399,N,07735.14983,E,2,04,2.74,971.2,M,-86.2,M,,0000*71
$GPGSA,A,3,03,07,09,02,,,,,,,,,3.32,2.74,1.87*00
$GPGSV,3,1,10,02,09,198,31,03,64,237,45,04,44,354,24,07,19,285,43*72
$GPGSV,3,2,10,08,33,154,17,09,20,328,41,16,48,035,,27,35,113,*7D
$GPGSV,3,3,10,31,11,051,21,40,60,242,44*7B
$GPGLL,1301.37399,N,07735.14983,E,101130.00,A,D*6B
$GPRMC,101131.00,A,1301.37409,N,07735.14968,E,0.029,,101024,,,D*75
$GPVTG,,T,,M,0.029,N,0.054,K,D*2C
$GPGGA,101131.00,1301.37409,N,07735.14968,E,2,04,2.74,971.5,M,-86.2,M,,0000*7C
$GPGSA,A,3,03,07,09,02,,,,,,,,,3.32,2.74,1.87*00
$GPGSV,3,1,10,02,09,198,30,03,64,237,45,04,44,354,24,07,19,285,43*73
$GPGSV,3,2,10,08,33,154,16,09,20,328,41,16,48,035,,27,35,113,23*7D
$GPGSV,3,3,10,31,11,051,20,40,60,242,44*7A
$GPGLL,1301.37409,N,07735.14968,E,101131.00,A,D*61
$GPRMC,101132.00,A,1301.37415,N,07735.14963,E,0.134,,101024,,,D*7D
$GPVTG,,T,,M,0.134,N,0.249,K,D*2F
$GPGGA,101132.00,1301.37415,N,07735.14963,E,2,04,2.74,971.6,M,-86.2,M,,0000*7A
$GPGSA,A,3,03,07,09,02,,,,,,,,,3.32,2.74,1.87*00
$GPGSV,3,1,10,02,09,198,22,03,64,236,37,04,44,354,24,07,19,285,37*77
$GPGSV,3,2,10,08,33,154,17,09,20,328,33,16,48,035,,27,35,113,22*78
$GPGSV,3,3,10,31,11,051,19,40,60,242,37*74
$GPGLL,1301.37415,N,07735.14963,E,101132.00,A,D*64
$GPRMC,101133.00,A,1301.37424,N,07735.14955,E,0.049,,101024,,,D*70
$GPVTG,,T,,M,0.049,N,0.091,K,D*23
$GPGGA,101133.00,1301.37424,N,07735.14955,E,2,04,2.74,971.7,M,-86.2,M,,0000*7D
$GPGSA,A,3,03,07,09,02,,,,,,,,,3.32,2.74,1.87*00
$GPGSV,4,1,14,02,09,198,33,03,64,236,44,04,44,354,24,07,19,285,43*73
$GPGSV,4,2,14,08,33,154,16,09,20,328,39,16,48,035,,22,,,26*44
$GPGSV,4,3,14,23,,,26,24,,,27,25,,,28,27,35,113,21*43
$GPGSV,4,4,14,31,11,051,18,40,60,242,43*72
$GPGLL,1301.37424,N,07735.14955,E,101133.00,A,D*62
$GPRMC,101134.00,A,1301.37433,N,07735.14947,E,0.039,,101024,,,D*75
$GPVTG,,T,,M,0.039,N,0.072,K,D*29
$GPGGA,101134.00,1301.37433,N,07735.14947,E,2,04,2.74,971.8,M,-86.2,M,,0000*70
$GPGSA,A,3,03,07,09,02,,,,,,,,,3.32,2.74,1.87*00
$GPGSV,4,1,15,02,09,198,27,03,64,236,43,04,44,354,25,07,19,285,42*70
$GPGSV,4,2,15,08,33,154,16,09,20,328,40,16,48,035,,20,,,24*4B
$GPGSV,4,3,15,22,,,23,23,,,25,24,,,24,25,,,25*7D
$GPGSV,4,4,15,27,35,113,21,31,11,051,17,40,60,242,42*4E
$GPGLL,1301.37433,N,07735.14947,E,101134.00,A,D*60